Utility ID,Plant Code,State,Type,Utility Name,Plant Name,Nameplate Capacity (MW)_sum,Minimum Load (MW)_sum,Zip,County,Latitude,Longitude,index,type,location_node,Pg,Qg,Qmax,Qmin,Vg,mBase,status,Pmax,Pmin,RUrate,RDrate,c0,c1,c2,SUcost,SDcost,UPtime,DNtime,Zone,ave_marg_damages_isrm_LePeule,Planned Retirement Year,Retirement Year,PlannedRetirementYear,CO2mtonperMWh,SO2mtonperMWh,NOxmtonperMWh,PM25mtonperMWh
22379,540,CT,Oil,Connecticut Jet Power LLC,Branford,21.8,17.4,6450,NEW HAVEN,41.2925,-72.7942,1,Oil,6,0,0,0,0,0,1,0,21.8,7.63,400,400,0,207.0218,0,94146,0,16,11,CT,72.79641688,,,2100,1.433523528,0.03068225,0.123309981,0.000936402
22379,542,CT,Oil,Connecticut Jet Power LLC,Cos Cob,115,95.6,6430,FAIRFIELD,41.0289,-73.5989,2,Oil,6,0,0,0,0,0,1,0,115,40.25,400,400,0,207.115,0,94146,0,16,11,CT,151.8447747,,,2100,1.433523528,0.03068225,0.123309981,0.000936402
22350,544,CT,Oil,Devon Power LLC,Devon Station,222.6,78.4,6460,NEW HAVEN,41.209797,-73.108976,3,Oil,6,0,0,0,0,0,1,0,222.6,77.91,400,400,0,207.2226,0,94146,0,16,11,CT,21.94525142,,,2100,1.433523528,0.03068225,0.123309981,0.000936402
22380,546,CT,Oil,NRG Montville Operations Inc,Montville Station,495.3,167,6382,NEW LONDON,41.4281,-72.1019,4,Oil,6,0,0,0,0,0,1,0,495.3,173.355,400,400,0,207.4953,0,94146,0,16,11,CT,131.7203012,,,2100,1.433523528,0.03068225,0.123309981,0.000936402
54895,557,CT,Oil,FirstLight Power Resources Services LLC,Tunnel,18.5,5,6365,NEW LONDON,41.555425,-72.041829,5,Oil,6,0,0,0,0,0,1,0,18.5,6.475,400,400,0,207.0185,0,94146,0,16,11,CT,242.6216617,,,2100,1.433523528,0.03068225,0.123309981,0.000936402
22379,561,CT,Oil,Connecticut Jet Power LLC,Franklin Drive,21.8,16.1,6790,LITCHFIELD,41.798943,-73.116267,6,Oil,6,0,0,0,0,0,1,0,21.8,7.63,400,400,0,207.0218,0,94146,0,16,11,CT,206.9482785,,,2100,1.433523528,0.03068225,0.123309981,0.000936402
12490,562,CT,Oil,Middletown Power LLC,Middletown,433.4,130,6457,MIDDLESEX,41.554944,-72.579075,7,Oil,6,0,0,0,0,0,1,0,433.4,151.69,400,400,0,207.4334,0,94146,0,16,11,CT,19.18844466,,,2100,1.433523528,0.03068225,0.123309981,0.000936402
12490,562,CT,Gas_Steam,Middletown Power LLC,Middletown,353,145,6457,MIDDLESEX,41.554944,-72.579075,8,Gas,6,0,0,0,0,0,1,0,353,70.6,400,400,0,56.353,0,14238,0,8,6,CT,19.18844466,,,2100,0.877847527,0.001864909,0.021010779,0.0000383
4426,563,CT,Oil,NAES Corp,South Meadow,167.2,40,6162,HARTFORD,41.7495,-72.6524,9,Oil,6,0,0,0,0,0,1,0,167.2,58.52,400,400,0,207.1672,0,94146,0,16,11,CT,504.6230196,2023,,2023,1.433523528,0.03068225,0.123309981,0.000936402
22379,565,CT,Oil,Connecticut Jet Power LLC,Torrington Terminal,21.8,17.4,6790,LITCHFIELD,41.776109,-73.120886,10,Oil,6,0,0,0,0,0,1,0,21.8,7.63,400,400,0,207.0218,0,94146,0,16,11,CT,339.9972675,,,2100,1.433523528,0.03068225,0.123309981,0.000936402
5221,566,CT,Nuclear,Dominion Nuclear Conn Inc,Millstone,2162.9,115,6385,NEW LONDON,41.3107,-72.1677,11,Nuclear,6,0,0,0,0,0,1,0,2162.9,1730.32,120,120,0,13.1629,0,900000,0,24,48,CT,0,,,2100,0,0,0,0
15452,568,CT,Coal,PSEG Power Connecticut LLC,Bridgeport Station,400,130,6604,FAIRFIELD,41.1706,-73.1844,12,Coal,6,0,0,0,0,0,1,0,400,160,120,120,0,25.4,0,12586,0,16,16,CT,55.26698739,,2021,2021,2.515839136,0.008657309,0.006533838,0.000125662
15452,568,CT,Oil,PSEG Power Connecticut LLC,Bridgeport Station,18.6,15,6604,FAIRFIELD,41.1706,-73.1844,13,Oil,6,0,0,0,0,0,1,0,18.6,6.51,400,400,0,207.0186,0,94146,0,16,11,CT,55.26698739,,2021,2021,1.433523528,0.03068225,0.123309981,0.000936402
13831,581,CT,Oil,City of Norwich - (CT),North Main Street,19,2,6360,NEW LONDON,41.52679,-72.064935,14,Oil,6,0,0,0,0,0,1,0,19,6.65,400,400,0,207.019,0,94146,0,16,11,CT,145.0566647,,,2100,1.433523528,0.03068225,0.123309981,0.000936402
1179,1468,ME,Oil,Emera Maine,Eastport,2,0,4631,WASHINGTON,44.9136,-67.0033,15,Oil,1,0,0,0,0,0,1,0,2,0.7,400,400,0,207.002,0,94146,0,16,11,ME,133.6953449,,,2100,1.433523528,0.03068225,0.123309981,0.000936402
14876,1484,ME,Oil,FPL Energy Cape LLC,Cape Gas Turbine,35,4,4106,CUMBERLAND,43.6436,-70.2544,16,Oil,1,0,0,0,0,0,1,0,35,12.25,400,400,0,207.035,0,94146,0,16,11,ME,133.6953449,,,2100,1.433523528,0.03068225,0.123309981,0.000936402
31719,1507,ME,Oil,FPL Energy Wyman LLC,William F Wyman,846,110,4096,CUMBERLAND,43.7508,-70.1567,17,Oil,1,0,0,0,0,0,1,0,846,296.1,400,400,0,207.846,0,94146,0,16,11,ME,44.16033273,,,2100,1.433523528,0.03068225,0.123309981,0.000936402
6035,1586,MA,Oil,Exelon Power,Exelon Framingham LLC,42.6,15,1701,NORFOLK,42.2672,-71.3983,18,Oil,8,0,0,0,0,0,1,0,42.6,14.91,400,400,0,207.0426,0,94146,0,16,11,SEMASS,133.6953449,,,2100,1.433523528,0.03068225,0.123309981,0.000936402
6035,1587,MA,Oil,Exelon Power,Exelon L Street,18.6,6,2127,SUFFOLK,42.3392,-71.0353,19,Oil,8,0,0,0,0,0,1,0,18.6,6.51,400,400,0,207.0186,0,94146,0,16,11,SEMASS,133.6953449,,2016,2016,1.433523528,0.03068225,0.123309981,0.000936402
49965,1588,MA,Oil,Constellation Mystic Power LLC,Mystic Generating Station,631.2,95,2129,MIDDLESEX,42.3908,-71.0675,20,Oil,8,0,0,0,0,0,1,0,631.2,220.92,400,400,0,207.6312,0,94146,0,16,11,SEMASS,14.30842872,2024,2021,2021,1.433523528,0.03068225,0.123309981,0.000936402
49965,1588,MA,Gas_CCGT,Constellation Mystic Power LLC,Mystic Generating Station,1744.4,710,2129,MIDDLESEX,42.3908,-71.0675,21,Gas,8,0,0,0,0,0,1,0,1744.4,348.88,400,400,0,57.7444,0,14238,0,8,6,SEMASS,14.30842872,2024,2021,2021,0.877847527,0.001864909,0.021010779,0.0000383
29926,1590,MA,Nuclear,Entergy Nuclear Generation Co,Pilgrim Nuclear Power Station,670,0,2360,PLYMOUTH,41.9438,-70.578,22,Nuclear,8,0,0,0,0,0,1,0,670,536,120,120,0,11.67,0,900000,0,24,48,SEMASS,0,,,2100,0,0,0,0
6035,1592,MA,Oil,Exelon Power,Exelon Medway LLC,135,60,2053,NORFOLK,42.140028,-71.446441,23,Oil,8,0,0,0,0,0,1,0,135,47.25,400,400,0,207.135,0,94146,0,16,11,SEMASS,440.3672816,,,2100,1.433523528,0.03068225,0.123309981,0.000936402
59528,1595,MA,Gas_CCGT,Veolia - Kendall Green Energy,Kendall Square Station,253.6,114,2142,MIDDLESEX,42.3633,-71.0792,24,Gas,8,0,0,0,0,0,1,0,253.6,50.72,400,400,0,56.2536,0,14238,0,8,6,SEMASS,25.47775775,,2018,2018,0.877847527,0.001864909,0.021010779,0.0000383
59528,1595,MA,Oil,Veolia - Kendall Green Energy,Kendall Square Station,20,14,2142,MIDDLESEX,42.3633,-71.0792,25,Oil,8,0,0,0,0,0,1,0,20,7,400,400,0,207.02,0,94146,0,16,11,SEMASS,25.47775775,,2018,2018,1.433523528,0.03068225,0.123309981,0.000936402
21461,1597,MA,Oil,NRG Canal LLC,Oak Bluffs Diesel Generating Facility,8.1,6,2557,DUKES,41.425786,-70.608273,26,Oil,8,0,0,0,0,0,1,0,8.1,2.835,400,400,0,207.0081,0,94146,0,16,11,SEMASS,133.6953449,,,2100,1.433523528,0.03068225,0.123309981,0.000936402
21461,1599,MA,Oil,NRG Canal LLC,Canal,1165,370,2563,BARNSTABLE,41.7694,-70.5097,27,Oil,8,0,0,0,0,0,1,0,1165,407.75,400,400,0,208.165,0,94146,0,16,11,SEMASS,7.809595005,,,2100,1.433523528,0.03068225,0.123309981,0.000936402
13206,1615,MA,Oil,Nantucket Electric Co,Nantucket,7.4,3,2554,NANTUCKET,41.2583,-70.0517,28,Oil,8,0,0,0,0,0,1,0,7.4,2.59,400,400,0,207.0074,0,94146,0,16,11,SEMASS,133.6953449,,2019,2019,1.433523528,0.03068225,0.123309981,0.000936402
58534,1619,MA,Coal,Brayton Point Energy LLC,Brayton Point,1124.6,550,2726,BRISTOL,41.7103,-71.1931,29,Coal,8,0,0,0,0,0,1,0,1124.6,449.84,120,120,0,26.1246,0,12586,0,16,16,SEMASS,60.37583423,,,2100,2.515839136,0.008657309,0.006533838,0.000125662
58534,1619,MA,Oil,Brayton Point Energy LLC,Brayton Point,475.5,50,2726,BRISTOL,41.7103,-71.1931,30,Oil,8,0,0,0,0,0,1,0,475.5,166.425,400,400,0,207.4755,0,94146,0,16,11,SEMASS,133.6953449,,,2100,1.433523528,0.03068225,0.123309981,0.000936402
56401,1631,MA,Oil,NAEA Energy Massachusetts  LLC,Doreen,21.1,15,1201,BERKSHIRE,42.4433,-73.2058,31,Oil,4,0,0,0,0,0,1,0,21.1,7.385,400,400,0,207.0211,0,94146,0,16,11,WCMASS,92.97915266,,,2100,1.433523528,0.03068225,0.123309981,0.000936402
56401,1642,MA,Gas_Steam,NAEA Energy Massachusetts  LLC,Essential Power Massachusetts LLC,113.6,30,1089,HAMPDEN,42.095,-72.595,32,Gas,4,0,0,0,0,0,1,0,113.6,22.72,400,400,0,56.1136,0,14238,0,8,6,WCMASS,39.63542257,,2021,2021,0.877847527,0.001864909,0.021010779,0.0000383
56401,1642,MA,Gas_GT,NAEA Energy Massachusetts  LLC,Essential Power Massachusetts LLC,120,50,1089,HAMPDEN,42.095,-72.595,33,Gas,4,0,0,0,0,0,1,0,120,24,400,400,0,343.12,0,0,0,1,1,WCMASS,39.63542257,,2021,2021,0.877847527,0.001864909,0.021010779,0.0000383
56401,1642,MA,Oil,NAEA Energy Massachusetts  LLC,Essential Power Massachusetts LLC,17,15,1089,HAMPDEN,42.095,-72.595,34,Oil,4,0,0,0,0,0,1,0,17,5.95,400,400,0,207.017,0,94146,0,16,11,WCMASS,39.63542257,,2021,2021,1.433523528,0.03068225,0.123309981,0.000936402
56401,1643,MA,Oil,NAEA Energy Massachusetts  LLC,Woodland Road,20.4,15,1238,BERKSHIRE,42.336215,-73.235486,35,Oil,4,0,0,0,0,0,1,0,20.4,7.14,400,400,0,207.0204,0,94146,0,16,11,WCMASS,46.07783098,,,2100,1.433523528,0.03068225,0.123309981,0.000936402
2144,1660,MA,Gas_CCGT,Town of Braintree - (MA),Potter Station 2,101,45,2184,NORFOLK,42.235,-70.9672,36,Gas,8,0,0,0,0,0,1,0,101,20.2,400,400,0,56.101,0,14238,0,8,6,SEMASS,34.13986798,,,2100,0.877847527,0.001864909,0.021010779,0.0000383
2144,1660,MA,Oil,Town of Braintree - (MA),Potter Station 2,2.7,1,2184,NORFOLK,42.235,-70.9672,37,Oil,8,0,0,0,0,0,1,0,2.7,0.945,400,400,0,207.0027,0,94146,0,16,11,SEMASS,34.13986798,,,2100,1.433523528,0.03068225,0.123309981,0.000936402
2144,1660,MA,Gas_GT,Town of Braintree - (MA),Potter Station 2,116,56,2184,NORFOLK,42.235,-70.9672,38,Gas,8,0,0,0,0,0,1,0,116,23.2,400,400,0,343.116,0,0,0,1,1,SEMASS,34.13986798,,,2100,0.877847527,0.001864909,0.021010779,0.0000383
9442,1670,MA,Gas_IC,Town of Ipswich - (MA),High Street Station,8.5,4.9,1938,ESSEX,42.6986,-70.8697,39,Gas,8,0,0,0,0,0,1,0,8.5,1.7,400,400,0,56.0085,0,14238,0,8,6,SEMASS,29.41193361,,,2100,0.877847527,0.001864909,0.021010779,0.0000383
9442,1670,MA,Oil,Town of Ipswich - (MA),High Street Station,2.4,1.4,1938,ESSEX,42.6986,-70.8697,40,Oil,8,0,0,0,0,0,1,0,2.4,0.84,400,400,0,207.0024,0,94146,0,16,11,SEMASS,133.6953449,,,2100,1.433523528,0.03068225,0.123309981,0.000936402
14605,1678,MA,Gas_GT,City of Peabody - (MA),Waters River,64.9,44,1960,ESSEX,42.542949,-70.928314,41,Gas,8,0,0,0,0,0,1,0,64.9,12.98,400,400,0,343.0649,0,0,0,1,1,SEMASS,77.7039561,,,2100,0.877847527,0.001864909,0.021010779,0.0000383
18488,1682,MA,Oil,City of Taunton,Cleary Flood,146.3,96,2780,BRISTOL,41.8653,-71.1061,42,Oil,8,0,0,0,0,0,1,0,146.3,51.205,400,400,0,207.1463,0,94146,0,16,11,SEMASS,27.10821886,,2020,2020,1.433523528,0.03068225,0.123309981,0.000936402
15472,2362,NH,Oil,Public Service Co of NH,Lost Nation,18,4,3852,COOS,44.595117,-71.494398,43,Oil,2,0,0,0,0,0,1,0,18,6.3,400,400,0,207.018,0,94146,0,16,11,NH,133.6953449,,,2100,1.433523528,0.03068225,0.123309981,0.000936402
15472,2364,NH,Coal,Public Service Co of NH,Merrimack,459.2,300,3301,MERRIMACK,43.1411,-71.4692,44,Coal,2,0,0,0,0,0,1,0,459.2,183.68,120,120,0,25.4592,0,12586,0,16,16,NH,105.4654119,,,2100,2.515839136,0.008657309,0.006533838,0.000125662
15472,2364,NH,Oil,Public Service Co of NH,Merrimack,37.2,8,3301,MERRIMACK,43.1411,-71.4692,45,Oil,2,0,0,0,0,0,1,0,37.2,13.02,400,400,0,207.0372,0,94146,0,16,11,NH,105.4654119,,,2100,1.433523528,0.03068225,0.123309981,0.000936402
15472,2367,NH,Coal,Public Service Co of NH,Schiller,100,26,3801,ROCKINGHAM,43.0978,-70.7842,46,Coal,2,0,0,0,0,0,1,0,100,40,120,120,0,25.1,0,12586,0,16,16,NH,20.39510344,,,2100,2.515839136,0.008657309,0.006533838,0.000125662
15472,2367,NH,Oil,Public Service Co of NH,Schiller,21.2,5,3801,ROCKINGHAM,43.0978,-70.7842,47,Oil,2,0,0,0,0,0,1,0,21.2,7.42,400,400,0,207.0212,0,94146,0,16,11,NH,20.39510344,,,2100,1.433523528,0.03068225,0.123309981,0.000936402
15472,2369,NH,Oil,Public Service Co of NH,White Lake,18.6,4,3886,CARROLL,43.8478,-71.2069,48,Oil,2,0,0,0,0,0,1,0,18.6,6.51,400,400,0,207.0186,0,94146,0,16,11,NH,133.6953449,,,2100,1.433523528,0.03068225,0.123309981,0.000936402
50018,3236,RI,Gas_CCGT,"Dominion Energy New England, LLC",Manchester Street,515,330,2903,PROVIDENCE,41.8167,-71.4042,49,Gas,7,0,0,0,0,0,1,0,515,103,400,400,0,56.515,0,14238,0,8,6,RI,6.385282321,,,2100,0.877847527,0.001864909,0.021010779,0.0000383
7601,3708,VT,Oil,Green Mountain Power Corp,Ascutney,13.2,7,5030,WINDSOR,43.4011,-72.4203,50,Oil,3,0,0,0,0,0,1,0,13.2,4.62,400,400,0,207.0132,0,94146,0,16,11,VT,133.6953449,,,2100,1.433523528,0.03068225,0.123309981,0.000936402
7601,3723,VT,Oil,Green Mountain Power Corp,Rutland,13.2,7,5701,RUTLAND,43.603,-72.9923,51,Oil,3,0,0,0,0,0,1,0,13.2,4.62,400,400,0,207.0132,0,94146,0,16,11,VT,133.6953449,,,2100,1.433523528,0.03068225,0.123309981,0.000936402
7601,3734,VT,Oil,Green Mountain Power Corp,Berlin 5,41.8,24,5641,WASHINGTON,44.251,-72.6027,52,Oil,3,0,0,0,0,0,1,0,41.8,14.63,400,400,0,207.0418,0,94146,0,16,11,VT,133.6953449,,,2100,1.433523528,0.03068225,0.123309981,0.000936402
7601,3735,VT,Oil,Green Mountain Power Corp,Colchester 16,18,3,5446,CHITTENDEN,44.4906,-73.1703,53,Oil,3,0,0,0,0,0,1,0,18,6.3,400,400,0,207.018,0,94146,0,16,11,VT,133.6953449,,,2100,1.433523528,0.03068225,0.123309981,0.000936402
7601,3737,VT,Oil,Green Mountain Power Corp,Essex Junction 19,8,7.2,5452,CHITTENDEN,44.4821,-73.1164,54,Oil,3,0,0,0,0,0,1,0,8,2.8,400,400,0,207.008,0,94146,0,16,11,VT,133.6953449,,,2100,1.433523528,0.03068225,0.123309981,0.000936402
1299,3753,VT,Oil,"Barton Village, Inc",West Charleston,2.8,0,5872,ORLEANS,44.887379,-72.055357,55,Oil,3,0,0,0,0,0,1,0,2.8,0.98,400,400,0,207.0028,0,94146,0,16,11,VT,133.6953449,,,2100,1.433523528,0.03068225,0.123309981,0.000936402
2548,3754,VT,Oil,City of Burlington Electric - (VT),Burlington GT,25.5,5,5401,CHITTENDEN,44.4814,-73.2239,56,Oil,3,0,0,0,0,0,1,0,25.5,8.925,400,400,0,207.0255,0,94146,0,16,11,VT,133.6953449,,,2100,1.433523528,0.03068225,0.123309981,0.000936402
21461,6049,MA,Oil,NRG Canal LLC,West Tisbury Generating Facility,5.4,4,2575,DUKES,41.392486,-70.620089,57,Oil,8,0,0,0,0,0,1,0,5.4,1.89,400,400,0,207.0054,0,94146,0,16,11,SEMASS,133.6953449,,,2100,1.433523528,0.03068225,0.123309981,0.000936402
11806,6081,MA,Oil,Massachusetts Mun Wholes Electric Co,Stony Brook,534.6,235.6,1056,HAMPDEN,42.1978,-72.5106,58,Oil,4,0,0,0,0,0,1,0,534.6,187.11,400,400,0,207.5346,0,94146,0,16,11,WCMASS,220.9678966,,,2100,1.433523528,0.03068225,0.123309981,0.000936402
6854,6115,NH,Nuclear,NextEra Energy Seabrook LLC,Seabrook,1242,360,3874,ROCKINGHAM,42.899167,-70.848889,59,Nuclear,2,0,0,0,0,0,1,0,1242,993.6,120,120,0,12.242,0,900000,0,24,48,NH,0,,,2100,0,0,0,0
17127,6125,MA,Oil,Town of Shrewsbury - (MA),Shrewsbury,14,3,1545,WORCESTER,42.2747,-71.7172,60,Oil,4,0,0,0,0,0,1,0,14,4.9,400,400,0,207.014,0,94146,0,16,11,WCMASS,133.6953449,,,2100,1.433523528,0.03068225,0.123309981,0.000936402
15452,6156,CT,Oil,PSEG Power Connecticut LLC,New Haven Harbor,641.5,229.6,6512,NEW HAVEN,41.283997,-72.904323,61,Oil,6,0,0,0,0,0,1,0,641.5,224.525,400,400,0,207.6415,0,94146,0,16,11,CT,49.37634365,,,2100,1.433523528,0.03068225,0.123309981,0.000936402
7601,6519,VT,Oil,Green Mountain Power Corp,Vergennes 9,4,4,5491,ADDISON,44.1664,-73.2575,62,Oil,3,0,0,0,0,0,1,0,4,1.4,400,400,0,207.004,0,94146,0,16,11,VT,133.6953449,,2021,2021,1.433523528,0.03068225,0.123309981,0.000936402
11624,6586,MA,Oil,City of Marblehead - (MA),Wilkins Station,5.4,5,1945,ESSEX,42.5131,-70.8583,63,Oil,8,0,0,0,0,0,1,0,5.4,1.89,400,400,0,207.0054,0,94146,0,16,11,SEMASS,133.6953449,,,2100,1.433523528,0.03068225,0.123309981,0.000936402
4180,6635,CT,Gas_GT,Connecticut Mun Elec Engy Coop,A L Pierce,84,40,6492,NEW HAVEN,41.44823,-72.834884,64,Gas,6,0,0,0,0,0,1,0,84,16.8,400,400,0,343.084,0,0,0,1,1,CT,12.21132735,,,2100,0.877847527,0.001864909,0.021010779,0.0000383
19794,7337,VT,Oil,Omya Inc,Florence,9.2,2.4,5744,RUTLAND,43.7089,-73.0631,65,Oil,3,0,0,0,0,0,1,0,9.2,3.22,400,400,0,207.0092,0,94146,0,16,11,VT,133.6953449,,,2100,1.433523528,0.03068225,0.123309981,0.000936402
3477,7396,MA,Oil,City of Chicopee - (MA),Front Street,8.1,3.9,1020,HAMPDEN,42.1483,-72.5911,66,Oil,4,0,0,0,0,0,1,0,8.1,2.835,400,400,0,207.0081,0,94146,0,16,11,WCMASS,133.6953449,,,2100,1.433523528,0.03068225,0.123309981,0.000936402
15472,8002,NH,Oil,Public Service Co of NH,Newington,414,60,3801,ROCKINGHAM,43.1,-70.790833,67,Oil,2,0,0,0,0,0,1,0,414,144.9,400,400,0,207.414,0,94146,0,16,11,NH,13.74748878,,,2100,1.433523528,0.03068225,0.123309981,0.000936402
8973,9038,MA,Oil,Town of Hudson - (MA),Cherry Street,17.3,2.5,1749,MIDDLESEX,42.388611,-71.56,68,Oil,8,0,0,0,0,0,1,0,17.3,6.055,400,400,0,207.0173,0,94146,0,16,11,SEMASS,133.6953449,2030,,2030,1.433523528,0.03068225,0.123309981,0.000936402
7049,10029,MA,Gas_Steam,General Electric Aircraft Engines,General Electric Aircraft Engines,32.5,3,1910,ESSEX,42.45,-70.9739,69,Gas,8,0,0,0,0,0,1,0,32.5,6.5,400,400,0,56.0325,0,14238,0,8,6,SEMASS,29.41193361,,2020,2020,0.877847527,0.001864909,0.021010779,0.0000383
7049,10029,MA,Gas_GT,General Electric Aircraft Engines,General Electric Aircraft Engines,21.1,2,1910,ESSEX,42.45,-70.9739,70,Gas,8,0,0,0,0,0,1,0,21.1,4.22,400,400,0,343.0211,0,0,0,1,1,SEMASS,26.22229005,,2020,2020,0.877847527,0.001864909,0.021010779,0.0000383
6636,10108,NH,Oil,Foss Manufacturing Company LLC,Hampton Facility,3.8,1.2,3842,ROCKINGHAM,42.9383,-70.8406,71,Oil,2,0,0,0,0,0,1,0,3.8,1.33,400,400,0,207.0038,0,94146,0,16,11,NH,133.6953449,,2017,2017,1.433523528,0.03068225,0.123309981,0.000936402
6636,10108,NH,Gas_GT,Foss Manufacturing Company LLC,Hampton Facility,5,1.2,3842,ROCKINGHAM,42.9383,-70.8406,72,Gas,2,0,0,0,0,0,1,0,5,1,400,400,0,343.005,0,0,0,1,1,NH,26.22229005,,2017,2017,0.877847527,0.001864909,0.021010779,0.0000383
11724,10176,MA,Oil,Massachusetts Bay Trans Auth,M Street Jet,69,5,2127,SUFFOLK,42.339387,-71.031407,73,Oil,8,0,0,0,0,0,1,0,69,24.15,400,400,0,207.069,0,94146,0,16,11,SEMASS,535.74911,,,2100,1.433523528,0.03068225,0.123309981,0.000936402
11451,10186,ME,Gas_Steam,Madison Paper Industries Inc,Anson Abenaki Hydros,3,0.7,4950,SOMERSET,44.7975,-69.8867,74,Gas,1,0,0,0,0,0,1,0,3,0.6,400,400,0,56.003,0,14238,0,8,6,ME,29.41193361,,2016,2016,0.877847527,0.001864909,0.021010779,0.0000383
21970,10307,MA,Gas_CCGT,Northeast Energy Associates LP,Bellingham Cogeneration Facility,386.1,200,2019,NORFOLK,42.0925,-71.4833,75,Gas,8,0,0,0,0,0,1,0,386.1,77.22,400,400,0,56.3861,0,14238,0,8,6,SEMASS,15.24393025,,,2100,0.877847527,0.001864909,0.021010779,0.0000383
3692,10408,MA,Gas_IC,Clark University,Clark University,2,1,1610,WORCESTER,42.2508,-71.8226,76,Gas,4,0,0,0,0,0,1,0,2,0.4,400,400,0,56.002,0,14238,0,8,6,WCMASS,29.41193361,,,2100,0.877847527,0.001864909,0.021010779,0.0000383
39878,10417,MA,Gas_Steam,Solutia Inc-Indian,Indian Orchard Plant 1,5.7,1,1151,HAMPDEN,42.156898,-72.524153,77,Gas,4,0,0,0,0,0,1,0,5.7,1.14,400,400,0,56.0057,0,14238,0,8,6,WCMASS,29.41193361,,,2100,0.877847527,0.001864909,0.021010779,0.0000383
54784,10491,ME,Gas_Steam,NewPage Corporation,Mead Rumford Cogen,12.5,12.5,4276,OXFORD,44.546503,-70.544286,78,Gas,1,0,0,0,0,0,1,0,12.5,2.5,400,400,0,56.0125,0,14238,0,8,6,ME,29.41193361,,,2100,0.877847527,0.001864909,0.021010779,0.0000383
4385,10553,MA,Oil,Anderson Power Products,Anderson Power Products Division,1,1,1564,WORCESTER,42.471389,-71.743333,79,Oil,4,0,0,0,0,0,1,0,1,0.35,400,400,0,207.001,0,94146,0,16,11,WCMASS,133.6953449,,2021,2021,1.433523528,0.03068225,0.123309981,0.000936402
291,10567,CT,Gas_CCGT,Algonquin Windsor Locks LLC,Algonquin Windsor Locks,71,25,6096,HARTFORD,41.9227,-72.6255,80,Gas,6,0,0,0,0,0,1,0,71,14.2,400,400,0,56.071,0,14238,0,8,6,CT,81.77956938,,,2100,0.877847527,0.001864909,0.021010779,0.0000383
11741,10726,MA,Gas_CCGT,Masspower,Masspower,260.9,188,1151,HAMPDEN,42.1575,-72.5225,81,Gas,4,0,0,0,0,0,1,0,260.9,52.18,400,400,0,56.2609,0,14238,0,8,6,WCMASS,15.35832696,,,2100,0.877847527,0.001864909,0.021010779,0.0000383
11427,10823,MA,Oil,Massachusetts Wtr RAuth-Deer I,Deer Island Treatment Plant,52,16,2152,SUFFOLK,42.353333,-70.962778,82,Oil,8,0,0,0,0,0,1,0,52,18.2,400,400,0,207.052,0,94146,0,16,11,SEMASS,133.6953449,,,2100,1.433523528,0.03068225,0.123309981,0.000936402
12258,10883,MA,Gas_GT,Medical Area Total Egy Plt Inc,Medical Area Total Energy Plant,25,12,2215,SUFFOLK,42.33685,-71.10815,83,Gas,8,0,0,0,0,0,1,0,25,5,400,400,0,343.025,0,0,0,1,1,SEMASS,26.22229005,,2021,2021,0.877847527,0.001864909,0.021010779,0.0000383
12258,10883,MA,Oil,Medical Area Total Egy Plt Inc,Medical Area Total Energy Plant,40.8,12,2215,SUFFOLK,42.33685,-71.10815,84,Oil,8,0,0,0,0,0,1,0,40.8,14.28,400,400,0,207.0408,0,94146,0,16,11,SEMASS,133.6953449,,2021,2021,1.433523528,0.03068225,0.123309981,0.000936402
12258,10883,MA,Gas_Steam,Medical Area Total Egy Plt Inc,Medical Area Total Energy Plant,22,2,2215,SUFFOLK,42.33685,-71.10815,85,Gas,8,0,0,0,0,0,1,0,22,4.4,400,400,0,56.022,0,14238,0,8,6,SEMASS,29.41193361,,2021,2021,0.877847527,0.001864909,0.021010779,0.0000383
15114,50002,MA,Gas_CCGT,"Pittsfield Generating Company,  LP",Pittsfield Generating LP,175.5,81,1201,BERKSHIRE,42.4564,-73.2181,86,Gas,4,0,0,0,0,0,1,0,175.5,35.1,400,400,0,56.1755,0,14238,0,8,6,WCMASS,10.58255888,,,2100,0.877847527,0.001864909,0.021010779,0.0000383
16544,50041,MA,Gas_Steam,Saint - Gobain Abrasives Inc,Norton Powerhouse,5.6,0.8,1606,WORCESTER,42.309555,-71.805218,87,Gas,4,0,0,0,0,0,1,0,5.6,1.12,400,400,0,56.0056,0,14238,0,8,6,WCMASS,29.41193361,,,2100,0.877847527,0.001864909,0.021010779,0.0000383
23955,50087,MA,Gas_Steam,University of Massachusetts Medical,Univ of Massachusetts Medical Center,10,2.5,1655,WORCESTER,42.279015,-71.759772,88,Gas,4,0,0,0,0,0,1,0,10,2,400,400,0,56.01,0,14238,0,8,6,WCMASS,29.41193361,,,2100,0.877847527,0.001864909,0.021010779,0.0000383
23955,50087,MA,Gas_GT,University of Massachusetts Medical,Univ of Massachusetts Medical Center,7.5,4.5,1655,WORCESTER,42.279015,-71.759772,89,Gas,4,0,0,0,0,0,1,0,7.5,1.5,400,400,0,343.0075,0,0,0,1,1,WCMASS,26.22229005,,,2100,0.877847527,0.001864909,0.021010779,0.0000383
16191,50230,ME,Oil,Robbins Lumber Inc,Robbins Lumber,2,0.5,4973,WALDO,44.3331,-69.2019,90,Oil,1,0,0,0,0,0,1,0,2,0.7,400,400,0,207.002,0,94146,0,16,11,ME,133.6953449,,,2100,1.433523528,0.03068225,0.123309981,0.000936402
9303,50243,ME,Gas_GT,Verso Bucksport LLC,Bucksport Generation LLC,186.8,110,4416,HANCOCK,44.5738,-68.8046,91,Gas,1,0,0,0,0,0,1,0,186.8,37.36,400,400,0,343.1868,0,0,0,1,1,ME,0.306828862,,2017,2017,0.877847527,0.001864909,0.021010779,0.0000383
50168,50498,CT,Gas_CCGT,Maxim Power (USA) Inc,Capital District Energy Center,78.2,30,6106,HARTFORD,41.7639,-72.6925,92,Gas,6,0,0,0,0,0,1,0,78.2,15.64,400,400,0,56.0782,0,14238,0,8,6,CT,26.38599781,,2021,2021,0.877847527,0.001864909,0.021010779,0.0000383
18000,50621,RI,Oil,State of Rhode Island,Central Power Plant,10,2.2,2920,PROVIDENCE,41.744973,-71.458415,93,Oil,7,0,0,0,0,0,1,0,10,3.5,400,400,0,207.01,0,94146,0,16,11,RI,133.6953449,,,2100,1.433523528,0.03068225,0.123309981,0.000936402
18000,50621,RI,Gas_IC,State of Rhode Island,Central Power Plant,2,1.2,2920,PROVIDENCE,41.744973,-71.458415,94,Gas,7,0,0,0,0,0,1,0,2,0.4,400,400,0,56.002,0,14238,0,8,6,RI,29.41193361,,,2100,0.877847527,0.001864909,0.021010779,0.0000383
18153,50801,CT,Gas_Steam,RockTenn-Uncasville,Uncasville Mill,2.8,0.2,6382,NEW LONDON,41.4336,-72.0983,95,Gas,6,0,0,0,0,0,1,0,2.8,0.56,400,400,0,56.0028,0,14238,0,8,6,CT,29.41193361,,,2100,0.877847527,0.001864909,0.021010779,0.0000383
5623,50955,MA,Gas_Steam,Rousselot Inc,Rousselot Inc,6.7,1.3,1960,ESSEX,42.521747,-70.938657,96,Gas,8,0,0,0,0,0,1,0,6.7,1.34,400,400,0,56.0067,0,14238,0,8,6,SEMASS,29.41193361,,,2100,0.877847527,0.001864909,0.021010779,0.0000383
27769,51030,RI,Gas_CCGT,Ocean State Power Co,Ocean State Power,254.2,106,2830,PROVIDENCE,42.009722,-71.668909,97,Gas,7,0,0,0,0,0,1,0,254.2,50.84,400,400,0,56.2542,0,14238,0,8,6,RI,15.42475624,,,2100,0.877847527,0.001864909,0.021010779,0.0000383
16001,52024,RI,Gas_Steam,Rhode Island Hospital,Rhode Island Hospital,10.4,1.2,2903,PROVIDENCE,41.8103,-71.41,98,Gas,7,0,0,0,0,0,1,0,10.4,2.08,400,400,0,56.0104,0,14238,0,8,6,RI,29.41193361,,,2100,0.877847527,0.001864909,0.021010779,0.0000383
56516,52026,MA,Gas_CCGT,"Morris Energy Operations Company, LLC",Dartmouth Power Associates LP,77,36,2747,BRISTOL,41.6731,-70.9994,99,Gas,8,0,0,0,0,0,1,0,77,15.4,400,400,0,56.077,0,14238,0,8,6,SEMASS,9.236072844,,,2100,0.877847527,0.001864909,0.021010779,0.0000383
56516,52026,MA,Gas_GT,"Morris Energy Operations Company, LLC",Dartmouth Power Associates LP,24.7,19,2747,BRISTOL,41.6731,-70.9994,100,Gas,8,0,0,0,0,0,1,0,24.7,4.94,400,400,0,343.0247,0,0,0,1,1,SEMASS,9.236072844,,,2100,0.877847527,0.001864909,0.021010779,0.0000383
8153,52061,CT,Gas_CCGT,Hartford Steam Co,Hartford Hospital Cogeneration,10.4,3.3,6103,HARTFORD,41.7631,-72.6733,101,Gas,6,0,0,0,0,0,1,0,10.4,2.08,400,400,0,56.0104,0,14238,0,8,6,CT,15.42475624,2025,,2025,0.877847527,0.001864909,0.021010779,0.0000383
8153,52061,CT,Gas_Other,Hartford Steam Co,Hartford Hospital Cogeneration,1.4,0,6103,HARTFORD,41.7631,-72.6733,102,Gas,6,0,0,0,0,0,1,0,1.4,0.28,400,400,0,56.0014,0,14238,0,8,6,CT,29.41193361,2025,,2025,0.877847527,0.001864909,0.021010779,0.0000383
14584,54056,RI,Gas_CCGT,Pawtucket Power Associates LP,Pawtucket Power Associates,68.8,31,2860,PROVIDENCE,41.861531,-71.406856,103,Gas,7,0,0,0,0,0,1,0,68.8,13.76,400,400,0,56.0688,0,14238,0,8,6,RI,84.10984145,,2021,2021,0.877847527,0.001864909,0.021010779,0.0000383
7209,54225,MA,Gas_GT,The Gillette Company,Gillette SBMC,7.2,3.8,2127,SUFFOLK,42.3436,-71.0559,104,Gas,8,0,0,0,0,0,1,0,7.2,1.44,400,400,0,343.0072,0,0,0,1,1,SEMASS,26.22229005,,,2100,0.877847527,0.001864909,0.021010779,0.0000383
7209,54225,MA,Oil,The Gillette Company,Gillette SBMC,2,0.5,2127,SUFFOLK,42.3436,-71.0559,105,Oil,8,0,0,0,0,0,1,0,2,0.7,400,400,0,207.002,0,94146,0,16,11,SEMASS,133.6953449,,,2100,1.433523528,0.03068225,0.123309981,0.000936402
7209,54225,MA,Gas_Steam,The Gillette Company,Gillette SBMC,5,0.5,2127,SUFFOLK,42.3436,-71.0559,106,Gas,8,0,0,0,0,0,1,0,5,1,400,400,0,56.005,0,14238,0,8,6,SEMASS,29.41193361,,,2100,0.877847527,0.001864909,0.021010779,0.0000383
5989,54228,MA,Gas_Steam,Erving Paper Mills Inc,Erving Paper Mills,0.6,0,1344,FRANKLIN,42.5983,-72.3875,107,Gas,4,0,0,0,0,0,1,0,0.6,0.12,400,400,0,56.0006,0,14238,0,8,6,WCMASS,29.41193361,,,2100,0.877847527,0.001864909,0.021010779,0.0000383
5989,54228,MA,Gas_GT,Erving Paper Mills Inc,Erving Paper Mills,5.6,2.8,1344,FRANKLIN,42.5983,-72.3875,108,Gas,4,0,0,0,0,0,1,0,5.6,1.12,400,400,0,343.0056,0,0,0,1,1,WCMASS,26.22229005,,,2100,0.877847527,0.001864909,0.021010779,0.0000383
14928,54236,CT,Gas_GT,Pfizer Inc,Pfizer Groton Plant,10,4.5,6340,NEW LONDON,41.3315,-72.0786,109,Gas,6,0,0,0,0,0,1,0,10,2,400,400,0,343.01,0,0,0,1,1,CT,26.22229005,,,2100,0.877847527,0.001864909,0.021010779,0.0000383
14928,54236,CT,Gas_Steam,Pfizer Inc,Pfizer Groton Plant,27.5,2.1,6340,NEW LONDON,41.3315,-72.0786,110,Gas,6,0,0,0,0,0,1,0,27.5,5.5,400,400,0,56.0275,0,14238,0,8,6,CT,29.41193361,,,2100,0.877847527,0.001864909,0.021010779,0.0000383
27770,54324,RI,Gas_CCGT,Ocean State Power II,Ocean State Power II,254.2,140,2830,PROVIDENCE,42.0099,-71.6701,111,Gas,7,0,0,0,0,0,1,0,254.2,50.84,400,400,0,56.2542,0,14238,0,8,6,RI,15.42475624,,,2100,0.877847527,0.001864909,0.021010779,0.0000383
4823,54409,NH,Oil,Dartmouth College,Dartmouth College Heating Plant,7,0.6,3755,GRAFTON,43.701916,-72.286735,112,Oil,2,0,0,0,0,0,1,0,7,2.45,400,400,0,207.007,0,94146,0,16,11,NH,133.6953449,,,2100,1.433523528,0.03068225,0.123309981,0.000936402
4566,54515,NH,Oil,Crotched Mt Rehab Ctr Inc,Crotched Mountain Rehabilitation Center,2.1,2.1,3047,HILLSBOROUGH,42.971653,-71.87268,113,Oil,2,0,0,0,0,0,1,0,2.1,0.735,400,400,0,207.0021,0,94146,0,16,11,NH,133.6953449,,,2100,1.433523528,0.03068225,0.123309981,0.000936402
56171,54586,MA,Gas_CCGT,Bicent Power,Tanner Street Generation,85,55,1852,MIDDLESEX,42.632124,-71.313235,114,Gas,8,0,0,0,0,0,1,0,85,17,400,400,0,56.085,0,14238,0,8,6,SEMASS,15.13108756,,,2100,0.877847527,0.001864909,0.021010779,0.0000383
21621,54605,CT,Gas_GT,United Technologies,Pratt & Whitney,25.8,12,6108,HARTFORD,41.748327,-72.636693,115,Gas,6,0,0,0,0,0,1,0,25.8,5.16,400,400,0,343.0258,0,0,0,1,1,CT,54.10059135,,,2100,0.877847527,0.001864909,0.021010779,0.0000383
59190,54803,NH,Oil,Plymouth State University,Plymouth State College Cogeneration,2.8,0.8,3264,GRAFTON,43.7644,-71.6881,116,Oil,2,0,0,0,0,0,1,0,2.8,0.98,400,400,0,207.0028,0,94146,0,16,11,NH,133.6953449,,,2100,1.433523528,0.03068225,0.123309981,0.000936402
12469,54805,MA,Gas_CCGT,Milford Power Ltd Partnership,Milford Power LP,178,120,1757,WORCESTER,42.129361,-71.511496,117,Gas,4,0,0,0,0,0,1,0,178,35.6,400,400,0,56.178,0,14238,0,8,6,WCMASS,42.43754099,,,2100,0.877847527,0.001864909,0.021010779,0.0000383
11820,54907,MA,Gas_GT,Massachusetts Inst of Tech,Mass Inst Tech Cntrl Utilities/Cogen Plt,21.2,14,2139,MIDDLESEX,42.360986,-71.093876,118,Gas,8,0,0,0,0,0,1,0,21.2,4.24,400,400,0,343.0212,0,0,0,1,1,SEMASS,26.22229005,,2021,2021,0.877847527,0.001864909,0.021010779,0.0000383
20347,54937,MA,Gas_IC,Wellesley College,Wellesley College Central Utility Plant,7.1,3.6,2481,NORFOLK,42.293927,-71.308111,119,Gas,8,0,0,0,0,0,1,0,7.1,1.42,400,400,0,56.0071,0,14238,0,8,6,SEMASS,29.41193361,,,2100,0.877847527,0.001864909,0.021010779,0.0000383
20347,54937,MA,Oil,Wellesley College,Wellesley College Central Utility Plant,2.9,1.5,2481,NORFOLK,42.293927,-71.308111,120,Oil,8,0,0,0,0,0,1,0,2.9,1.015,400,400,0,207.0029,0,94146,0,16,11,SEMASS,133.6953449,,,2100,1.433523528,0.03068225,0.123309981,0.000936402
55773,55026,MA,Gas_CCGT,"Dighton Power, LLC",Dighton Power Plant,200,108,2715,BRISTOL,41.8312,-71.1239,121,Gas,8,0,0,0,0,0,1,0,200,40,400,400,0,56.2,0,14238,0,8,6,SEMASS,7.236745316,,,2100,0.877847527,0.001864909,0.021010779,0.0000383
55738,55031,ME,Gas_GT,Verso Paper Androscoggin LLC,Androscoggin Energy Center,163.5,114,4239,FRANKLIN,44.506315,-70.242312,122,Gas,1,0,0,0,0,0,1,0,163.5,32.7,400,400,0,343.1635,0,0,0,1,1,ME,2.971739334,,,2100,0.877847527,0.001864909,0.021010779,0.0000383
1616,55041,MA,Gas_CCGT,Berkshire Power Co LLC,Berkshire Power,289,155,1001,HAMPDEN,42.0476,-72.6478,123,Gas,4,0,0,0,0,0,1,0,289,57.8,400,400,0,56.289,0,14238,0,8,6,WCMASS,6.095807816,,,2100,0.877847527,0.001864909,0.021010779,0.0000383
2232,55042,CT,Gas_CCGT,Bridgeport Energy LLC,Bridgeport Energy Project,520,0,6604,FAIRFIELD,41.1692,-73.1844,124,Gas,6,0,0,0,0,0,1,0,520,104,400,400,0,56.52,0,14238,0,8,6,CT,1.601564866,,,2100,0.877847527,0.001864909,0.021010779,0.0000383
55510,55048,RI,Gas_CCGT,Tiverton Power LLC,Tiverton Power Plant,272.5,130,2878,NEWPORT,41.6422,-71.1706,125,Gas,7,0,0,0,0,0,1,0,272.5,54.5,400,400,0,56.2725,0,14238,0,8,6,RI,2.302376532,,,2100,0.877847527,0.001864909,0.021010779,0.0000383
4966,55068,ME,Gas_CCGT,Casco Bay Energy Co LLC,Maine Independence Station,550.2,170,4401,PENOBSCOT,44.8242,-68.7094,126,Gas,1,0,0,0,0,0,1,0,550.2,110.04,400,400,0,56.5502,0,14238,0,8,6,ME,4.494254042,,,2100,0.877847527,0.001864909,0.021010779,0.0000383
12713,55079,MA,Gas_CCGT,Millennium Power Partners LP,Millennium Power,360,180,1507,WORCESTER,42.112291,-72.015113,127,Gas,4,0,0,0,0,0,1,0,360,72,400,400,0,56.36,0,14238,0,8,6,WCMASS,6.66663768,,,2100,0.877847527,0.001864909,0.021010779,0.0000383
54821,55100,ME,Gas_CCGT,Rumford Power,"Rumford Power, Inc",274.5,130,4276,OXFORD,44.5303,-70.5219,128,Gas,1,0,0,0,0,0,1,0,274.5,54.9,400,400,0,56.2745,0,14238,0,8,6,ME,0.638347793,,,2100,0.877847527,0.001864909,0.021010779,0.0000383
6832,55107,RI,Gas_CCGT,RISEC Opeating Services,Rhode Island State Energy Center,596,260,2919,PROVIDENCE,41.8017,-71.5186,129,Gas,7,0,0,0,0,0,1,0,596,119.2,400,400,0,56.596,0,14238,0,8,6,RI,7.673656594,,,2100,0.877847527,0.001864909,0.021010779,0.0000383
12568,55126,CT,Gas_CCGT,Milford Power Co LLC,Milford Power Project,578,320,6460,NEW HAVEN,41.224355,-73.099728,130,Gas,6,0,0,0,0,0,1,0,578,115.6,400,400,0,56.578,0,14238,0,8,6,CT,7.323399905,,,2100,0.877847527,0.001864909,0.021010779,0.0000383
10576,55149,CT,Gas_CCGT,Lake Road Generating Co LP,Lake Road Generating Plant,840,435,6241,WINDHAM,41.872043,-71.895799,131,Gas,6,0,0,0,0,0,1,0,840,168,400,400,0,56.84,0,14238,0,8,6,CT,7.932187609,,,2100,0.877847527,0.001864909,0.021010779,0.0000383
88,55170,NH,Gas_CCGT,Granite Ridge Energy LLC,Granite Ridge,790,395,3053,ROCKINGHAM,42.9042,-71.4261,132,Gas,2,0,0,0,0,0,1,0,790,158,400,400,0,56.79,0,14238,0,8,6,NH,16.98610521,,,2100,0.877847527,0.001864909,0.021010779,0.0000383
641,55211,MA,Gas_CCGT,ANP Bellingham Energy Company LLC,ANP Bellingham Energy Project,578,300,2019,NORFOLK,42.110577,-71.453468,133,Gas,8,0,0,0,0,0,1,0,578,115.6,400,400,0,56.578,0,14238,0,8,6,SEMASS,2.655892204,,,2100,0.877847527,0.001864909,0.021010779,0.0000383
656,55212,MA,Gas_CCGT,ANP Blackstone Energy Company LLC,ANP Blackstone Energy Project,578,300,1504,WORCESTER,42.059876,-71.515811,134,Gas,4,0,0,0,0,0,1,0,578,115.6,400,400,0,56.578,0,14238,0,8,6,WCMASS,4.288803705,,,2100,0.877847527,0.001864909,0.021010779,0.0000383
2891,55294,ME,Gas_CCGT,Westbrook Energy Center,Westbrook Energy Center Power Plant,563.9,285,4092,CUMBERLAND,43.6575,-70.375,135,Gas,1,0,0,0,0,0,1,0,563.9,112.78,400,400,0,56.5639,0,14238,0,8,6,ME,0.84219636,,,2100,0.877847527,0.001864909,0.021010779,0.0000383
59368,55317,MA,Gas_CCGT,"Calpine Fore River Energy Center, LLC",Fore River Generating Station,872.2,355,2191,NORFOLK,42.2422,-70.9661,136,Gas,8,0,0,0,0,0,1,0,872.2,174.44,400,400,0,56.8722,0,14238,0,8,6,SEMASS,2.606422991,,,2100,0.877847527,0.001864909,0.021010779,0.0000383
56927,55517,CT,Gas_GT,Wallingford Energy LLC,Wallingford Energy,250,10,6492,NEW HAVEN,41.448694,-72.835364,137,Gas,6,0,0,0,0,0,1,0,250,50,400,400,0,343.25,0,0,0,1,1,CT,13.86910773,,,2100,0.877847527,0.001864909,0.021010779,0.0000383
13538,55661,NH,Gas_CCGT,Essential Power Newington LLC,Essential Power Newington LLC,605.5,280,3801,ROCKINGHAM,43.1047,-70.8061,138,Gas,2,0,0,0,0,0,1,0,605.5,121.1,400,400,0,56.6055,0,14238,0,8,6,NH,0.784103642,,,2100,0.877847527,0.001864909,0.021010779,0.0000383
56221,55999,MA,Gas_IC,New England Confectionery Co Inc,NECCO Co-Generation,5.8,2,2151,SUFFOLK,42.415,-71.0039,139,Gas,8,0,0,0,0,0,1,0,5.8,1.16,400,400,0,56.0058,0,14238,0,8,6,SEMASS,29.41193361,,,2100,0.877847527,0.001864909,0.021010779,0.0000383
49840,56189,CT,Oil,"Waterside Power, LLC","Waterside Power, LLC",69.6,45,6904,FAIRFIELD,41.0372,-73.5564,140,Oil,6,0,0,0,0,0,1,0,69.6,24.36,400,400,0,207.0696,0,94146,0,16,11,CT,133.6953449,,,2100,1.433523528,0.03068225,0.123309981,0.000936402
4180,56256,CT,Oil,Connecticut Mun Elec Engy Coop,"John Street 1, 3, 4 & 5",5.4,3,6492,NEW HAVEN,41.4458,-72.8364,141,Oil,6,0,0,0,0,0,1,0,5.4,1.89,400,400,0,207.0054,0,94146,0,16,11,CT,133.6953449,,2018,2018,1.433523528,0.03068225,0.123309981,0.000936402
54895,56629,CT,Gas_GT,FirstLight Power Resources Services LLC,Waterbury Generation,96,50,6708,NEW HAVEN,41.5444,-73.0417,142,Gas,6,0,0,0,0,0,1,0,96,19.2,400,400,0,343.096,0,0,0,1,1,CT,18.04798639,,,2100,0.877847527,0.001864909,0.021010779,0.0000383
55993,56798,CT,Gas_CCGT,"Kleen Energy Systems, LLC",Kleen Energy Systems Project,693,417,6457,MIDDLESEX,41.553227,-72.596867,143,Gas,6,0,0,0,0,0,1,0,693,138.6,400,400,0,56.693,0,14238,0,8,6,CT,2.037922041,,,2100,0.877847527,0.001864909,0.021010779,0.0000383
56143,56928,CT,Gas_GT,Fairfield University,Fairfield University CHP Plant,4.5,0.5,6824,FAIRFIELD,41.1589,-73.2572,144,Gas,6,0,0,0,0,0,1,0,4.5,0.9,400,400,0,343.0045,0,0,0,1,1,CT,26.22229005,,,2100,0.877847527,0.001864909,0.021010779,0.0000383
56354,57068,CT,Oil,GenConn Middletown LLC,GenConn Middletown LLC,242,76.4,6457,MIDDLESEX,41.554444,-72.576666,145,Oil,6,0,0,0,0,0,1,0,242,84.7,400,400,0,207.242,0,94146,0,16,11,CT,133.6953449,,,2100,1.433523528,0.03068225,0.123309981,0.000936402
56352,57070,CT,Oil,GenConn Devon LLC,GenConn Devon LLC,242,76,6460,NEW HAVEN,41.2108,-73.1075,146,Oil,6,0,0,0,0,0,1,0,242,84.7,400,400,0,207.242,0,94146,0,16,11,CT,133.6953449,,,2100,1.433523528,0.03068225,0.123309981,0.000936402
56406,57103,MA,Gas_Steam,Newark America,Newark America Mill,6.3,1,1420,WORCESTER,42.561007,-71.848805,147,Gas,4,0,0,0,0,0,1,0,6.3,1.26,400,400,0,56.0063,0,14238,0,8,6,WCMASS,29.41193361,,,2100,0.877847527,0.001864909,0.021010779,0.0000383
8153,57179,CT,Gas_GT,Hartford Steam Co,HSCo CHP,4,1,6010,HARTFORD,41.7614,-72.6686,148,Gas,6,0,0,0,0,0,1,0,4,0.8,400,400,0,343.004,0,0,0,1,1,CT,26.22229005,2039,,2039,0.877847527,0.001864909,0.021010779,0.0000383
4180,57598,CT,Oil,Connecticut Mun Elec Engy Coop,Bridge Street 1 & 2,5.2,3,6340,NEW LONDON,41.362778,-72.0825,149,Oil,6,0,0,0,0,0,1,0,5.2,1.82,400,400,0,207.0052,0,94146,0,16,11,CT,133.6953449,,,2100,1.433523528,0.03068225,0.123309981,0.000936402
4180,57599,CT,Oil,Connecticut Mun Elec Engy Coop,"Fort Hill 1, 2, 3 & 4",10.4,6,6382,NEW LONDON,41.4711,-72.1022,150,Oil,6,0,0,0,0,0,1,0,10.4,3.64,400,400,0,207.0104,0,94146,0,16,11,CT,133.6953449,,,2100,1.433523528,0.03068225,0.123309981,0.000936402
4180,57601,CT,Oil,Connecticut Mun Elec Engy Coop,Gary Court 1 & 2,5.2,3,6340,NEW LONDON,41.3367,-72.02,151,Oil,6,0,0,0,0,0,1,0,5.2,1.82,400,400,0,207.0052,0,94146,0,16,11,CT,133.6953449,,,2100,1.433523528,0.03068225,0.123309981,0.000936402
4180,57602,CT,Oil,Connecticut Mun Elec Engy Coop,Jewett City 1,2.6,1.5,6351,NEW LONDON,41.6041,-71.9825,152,Oil,6,0,0,0,0,0,1,0,2.6,0.91,400,400,0,207.0026,0,94146,0,16,11,CT,133.6953449,,,2100,1.433523528,0.03068225,0.123309981,0.000936402
4180,57603,CT,Oil,Connecticut Mun Elec Engy Coop,LNG 1 & 2,5.2,3,6360,NEW LONDON,41.5694,-72.1175,153,Oil,6,0,0,0,0,0,1,0,5.2,1.82,400,400,0,207.0052,0,94146,0,16,11,CT,133.6953449,,,2100,1.433523528,0.03068225,0.123309981,0.000936402
4180,57604,CT,Oil,Connecticut Mun Elec Engy Coop,Lebanon Pines 1 & 2,5.2,3,6249,NEW LONDON,41.5683,-72.2322,154,Oil,6,0,0,0,0,0,1,0,5.2,1.82,400,400,0,207.0052,0,94146,0,16,11,CT,133.6953449,,,2100,1.433523528,0.03068225,0.123309981,0.000936402
4180,57605,CT,Oil,Connecticut Mun Elec Engy Coop,Water Treatment 1 & 2,5.2,3,6340,NEW LONDON,41.3469,-72.0411,155,Oil,6,0,0,0,0,0,1,0,5.2,1.82,400,400,0,207.0052,0,94146,0,16,11,CT,133.6953449,,,2100,1.433523528,0.03068225,0.123309981,0.000936402
13831,57624,CT,Oil,City of Norwich - (CT),Norwich WWTP,2,0.1,6360,NEW LONDON,41.5256,-72.0833,156,Oil,6,0,0,0,0,0,1,0,2,0.7,400,400,0,207.002,0,94146,0,16,11,CT,133.6953449,,,2100,1.433523528,0.03068225,0.123309981,0.000936402
56992,57666,CT,Gas_GT,Foxwoods Resort Casino,Foxwoods CoGen,13.2,8,6338,NEW LONDON,41.4731,-71.9606,157,Gas,6,0,0,0,0,0,1,0,13.2,2.64,400,400,0,343.0132,0,0,0,1,1,CT,26.22229005,,,2100,0.877847527,0.001864909,0.021010779,0.0000383
57015,57689,CT,Oil,Third Taxing District of Norwalk,Norden 1-3,6,3,6855,FAIRFIELD,41.1117,-73.3928,158,Oil,6,0,0,0,0,0,1,0,6,2.1,400,400,0,207.006,0,94146,0,16,11,CT,133.6953449,,,2100,1.433523528,0.03068225,0.123309981,0.000936402
57464,58084,CT,Gas_CCGT,Kimberly-Clark Corporation,"Kimberly Clark-Unit 1,2,3",20.2,7.4,6776,LITCHFIELD,41.558333,-73.413611,159,Gas,6,0,0,0,0,0,1,0,20.2,4.04,400,400,0,56.0202,0,14238,0,8,6,CT,15.42475624,,,2100,0.877847527,0.001864909,0.021010779,0.0000383
57464,58084,CT,Gas_GT,Kimberly-Clark Corporation,"Kimberly Clark-Unit 1,2,3",16.1,7,6776,LITCHFIELD,41.558333,-73.413611,160,Gas,6,0,0,0,0,0,1,0,16.1,3.22,400,400,0,343.0161,0,0,0,1,1,CT,26.22229005,,,2100,0.877847527,0.001864909,0.021010779,0.0000383
57495,58116,CT,Gas_IC,Cellu Tissue LLC,Cellu Tissue,3,1,6108,HARTFORD,41.776111,-72.606667,161,Gas,6,0,0,0,0,0,1,0,3,0.6,400,400,0,56.003,0,14238,0,8,6,CT,29.41193361,,,2100,0.877847527,0.001864909,0.021010779,0.0000383
58120,58152,CT,Gas_GT,Danbury Hospital,Danbury Hospital Cogen Plant,4.3,1,6810,FAIRFIELD,41.405278,-73.4475,162,Gas,6,0,0,0,0,0,1,0,4.3,0.86,400,400,0,343.0043,0,0,0,1,1,CT,26.22229005,,,2100,0.877847527,0.001864909,0.021010779,0.0000383
58122,58153,ME,Gas_GT,Eastern Maine Medical Center,Eastern Maine Medical Center,3.8,0.2,4402,PENOBSCOT,44.808333,-68.750833,163,Gas,1,0,0,0,0,0,1,0,3.8,0.76,400,400,0,343.0038,0,0,0,1,1,ME,26.22229005,,,2100,0.877847527,0.001864909,0.021010779,0.0000383
58131,58158,CT,Gas_IC,Wesleyan University,Wesleyan University Cogen 1,2.4,1.5,6459,MIDDLESEX,41.556389,-72.653889,164,Gas,6,0,0,0,0,0,1,0,2.4,0.48,400,400,0,56.0024,0,14238,0,8,6,CT,29.41193361,,,2100,0.877847527,0.001864909,0.021010779,0.0000383
58130,58159,CT,Gas_CCGT,University of Connecticut,UCONN Cogen Facility,25.7,9.8,6269,TOLLAND,41.809167,-72.254167,165,Gas,6,0,0,0,0,0,1,0,25.7,5.14,400,400,0,56.0257,0,14238,0,8,6,CT,15.42475624,,,2100,0.877847527,0.001864909,0.021010779,0.0000383
58109,58160,MA,Gas_Steam,President & Trustees of Williams College,Williams College - Campus CHP,3,0.3,1267,BERKSHIRE,42.709722,-73.202222,166,Gas,4,0,0,0,0,0,1,0,3,0.6,400,400,0,56.003,0,14238,0,8,6,WCMASS,29.41193361,,,2100,0.877847527,0.001864909,0.021010779,0.0000383
58138,58166,MA,Gas_GT,The Trustees of Smith College,Smith College Central Heating Plant,5.3,1.7,1063,HAMPSHIRE,42.3125,-72.639444,167,Gas,4,0,0,0,0,0,1,0,5.3,1.06,400,400,0,343.0053,0,0,0,1,1,WCMASS,26.22229005,,,2100,0.877847527,0.001864909,0.021010779,0.0000383
58156,58184,CT,Gas_GT,Rand Whitney Containerboard L.P.,Rand Whitney CHP Plant,14.6,7.3,6353,NEW LONDON,41.452778,-72.136111,168,Gas,6,0,0,0,0,0,1,0,14.6,2.92,400,400,0,343.0146,0,0,0,1,1,CT,26.22229005,,,2100,0.877847527,0.001864909,0.021010779,0.0000383
58152,58185,MA,Gas_GT,Amherst College,Amherst College Co Gen,1.2,0.1,1002,HAMPSHIRE,42.371667,-72.512222,169,Gas,4,0,0,0,0,0,1,0,1.2,0.24,400,400,0,343.0012,0,0,0,1,1,WCMASS,26.22229005,,2021,2021,0.877847527,0.001864909,0.021010779,0.0000383
58152,58185,MA,Gas_Steam,Amherst College,Amherst College Co Gen,0.5,0.1,1002,HAMPSHIRE,42.371667,-72.512222,170,Gas,4,0,0,0,0,0,1,0,0.5,0.1,400,400,0,56.0005,0,14238,0,8,6,WCMASS,29.41193361,,2021,2021,0.877847527,0.001864909,0.021010779,0.0000383
58188,58224,CT,Gas_IC,Central Connecticut State University,CCSU Co-Gen-STBY Gen,2.6,0.8,6050,HARTFORD,41.691389,-72.768611,171,Gas,6,0,0,0,0,0,1,0,2.6,0.52,400,400,0,56.0026,0,14238,0,8,6,CT,29.41193361,,,2100,0.877847527,0.001864909,0.021010779,0.0000383
58188,58224,CT,Oil,Central Connecticut State University,CCSU Co-Gen-STBY Gen,1,1,6050,HARTFORD,41.691389,-72.768611,172,Oil,6,0,0,0,0,0,1,0,1,0.35,400,400,0,207.001,0,94146,0,16,11,CT,133.6953449,,,2100,1.433523528,0.03068225,0.123309981,0.000936402
58213,58237,CT,Gas_Other,"New Britain Renewable Energy, LLC",CCSU Fuel Cell Project,1.4,0.7,6053,HARTFORD,41.691944,-72.761111,173,Gas,6,0,0,0,0,0,1,0,1.4,0.28,400,400,0,56.0014,0,14238,0,8,6,CT,29.41193361,,,2100,0.877847527,0.001864909,0.021010779,0.0000383
58300,58327,CT,Gas_IC,Ameresco Select Inc,Bradley Energy Center,5.8,2.5,6096,HARTFORD,41.927102,-72.683143,174,Gas,6,0,0,0,0,0,1,0,5.8,1.16,400,400,0,56.0058,0,14238,0,8,6,CT,29.41193361,,,2100,0.877847527,0.001864909,0.021010779,0.0000383
58300,58365,CT,Gas_Other,Ameresco Select Inc,CJTS Energy Center,0.4,0.1,6457,MIDDLESEX,41.552778,-72.625,175,Gas,6,0,0,0,0,0,1,0,0.4,0.08,400,400,0,56.0004,0,14238,0,8,6,CT,29.41193361,,,2100,0.877847527,0.001864909,0.021010779,0.0000383
58468,58551,CT,Gas_Other,Dominion Renewable Energy,Bridgeport Fuel Cell Park,16.6,0.6,6605,FAIRFIELD,41.168056,-73.211111,176,Gas,6,0,0,0,0,0,1,0,16.6,3.32,400,400,0,56.0166,0,14238,0,8,6,CT,29.41193361,,,2100,0.877847527,0.001864909,0.021010779,0.0000383
58607,58664,CT,Gas_GT,Frito Lay Incorporated Dayville,Frito Lay Incorporated,4.6,2,6241,WINDHAM,41.862778,-71.891667,177,Gas,6,0,0,0,0,0,1,0,4.6,0.92,400,400,0,343.0046,0,0,0,1,1,CT,26.22229005,,,2100,0.877847527,0.001864909,0.021010779,0.0000383
58809,58945,MA,Gas_IC,Simonds International,Simonds,1.8,1.2,1420,MIDDLESEX,42.567778,-71.773889,178,Gas,8,0,0,0,0,0,1,0,1.8,0.36,400,400,0,56.0018,0,14238,0,8,6,SEMASS,29.41193361,,,2100,0.877847527,0.001864909,0.021010779,0.0000383
2265,58948,CT,Oil,Bristol-Myers Squibb Co,Bristol Myers Squibb Wallingford,2.9,0.6,6492,NEW HAVEN,41.483611,-72.756389,179,Oil,6,0,0,0,0,0,1,0,2.9,1.015,400,400,0,207.0029,0,94146,0,16,11,CT,133.6953449,,,2100,1.433523528,0.03068225,0.123309981,0.000936402
2265,58948,CT,Gas_GT,Bristol-Myers Squibb Co,Bristol Myers Squibb Wallingford,4.8,3,6492,NEW HAVEN,41.483611,-72.756389,180,Gas,6,0,0,0,0,0,1,0,4.8,0.96,400,400,0,343.0048,0,0,0,1,1,CT,26.22229005,,,2100,0.877847527,0.001864909,0.021010779,0.0000383
4180,59415,CT,Oil,Connecticut Mun Elec Engy Coop,Backus Microgrid Project,10.4,6,6360,NEW LONDON,41.542778,-72.093611,181,Oil,6,0,0,0,0,0,1,0,10.4,3.64,400,400,0,207.0104,0,94146,0,16,11,CT,133.6953449,,,2100,1.433523528,0.03068225,0.123309981,0.000936402
59484,59717,MA,Oil,Framingham State University,Framingham State University Plant,2,2.2,1701,MIDDLESEX,42.297949,-71.436065,182,Oil,8,0,0,0,0,0,1,0,2,0.7,400,400,0,207.002,0,94146,0,16,11,SEMASS,133.6953449,,,2100,1.433523528,0.03068225,0.123309981,0.000936402
57128,59801,CT,Gas_Other,Bloom Energy,IBM Southbury,1.1,0,6488,NEW HAVEN,41.472492,-73.207043,183,Gas,6,0,0,0,0,0,1,0,1.1,0.22,400,400,0,56.0011,0,14238,0,8,6,CT,29.41193361,,,2100,0.877847527,0.001864909,0.021010779,0.0000383
59724,59967,CT,Gas_Other,"Pepperidge Farm, Inc.- Bloomfield",Pepperidge Farm Bloomfield,1.2,0.6,6002,HARTFORD,41.869302,-72.718315,184,Gas,6,0,0,0,0,0,1,0,1.2,0.24,400,400,0,56.0012,0,14238,0,8,6,CT,29.41193361,,,2100,0.877847527,0.001864909,0.021010779,0.0000383
19497,60040,CT,Gas_Other,United Illuminating Co,UI RCP New Haven Fuel Cell,2.8,2.3,6512,NEW HAVEN,41.288803,-72.898622,185,Gas,6,0,0,0,0,0,1,0,2.8,0.56,400,400,0,56.0028,0,14238,0,8,6,CT,29.41193361,,,2100,0.877847527,0.001864909,0.021010779,0.0000383
19497,60054,CT,Gas_Other,United Illuminating Co,UI RCP Bridgeport Seaside,2.8,2.3,6604,FAIRFIELD,41.157591,-73.208084,186,Gas,6,0,0,0,0,0,1,0,2.8,0.56,400,400,0,56.0028,0,14238,0,8,6,CT,29.41193361,,,2100,0.877847527,0.001864909,0.021010779,0.0000383
60058,60276,MA,Gas_GT,Hollingsworth and Vose Co.,West Groton CHP,4.1,2.4,1472,MIDDLESEX,42.61343,-71.633767,187,Gas,8,0,0,0,0,0,1,0,4.1,0.82,400,400,0,343.0041,0,0,0,1,1,SEMASS,26.22229005,,,2100,0.877847527,0.001864909,0.021010779,0.0000383